[
  { "cat": "entretenimiento", "name": "Parque de las Naciones", "municipio": "Oberá", "lat": -27.4850, "lng": -55.1200, "icon": "🎪", "desc": "Centro multicultural con réplicas de colectividades inmigrantes, gastronomía típica y festival anual del Inmigrante." },
  { "cat": "entretenimiento", "name": "La Aripuca", "municipio": "Puerto Iguazú", "lat": -25.6100, "lng": -54.5600, "icon": "🪵", "desc": "Estructura gigante de troncos reciclados. Experiencia ecológica interactiva con conciencia ambiental sobre la selva." },
  { "cat": "entretenimiento", "name": "Hito Tres Fronteras", "municipio": "Puerto Iguazú", "lat": -25.5950, "lng": -54.5880, "icon": "🏁", "desc": "Punto panorámico donde convergen Argentina, Brasil y Paraguay. Feria artesanal, gastronomía y espectáculo de luces." },
  { "cat": "entretenimiento", "name": "Paseo Bosetti", "municipio": "Posadas", "lat": -27.3650, "lng": -55.8930, "icon": "🎭", "desc": "Casco histórico restaurado con bares, restaurantes y galerías de arte. Centro cultural y gastronómico de la capital." },
  { "cat": "entretenimiento", "name": "Parque Temático de la Cruz", "municipio": "Santa Ana", "lat": -27.3830, "lng": -55.5720, "icon": "✝️", "desc": "Cruz de 82 metros de altura con miradores panorámicos, aerosilla y senderos en la selva paranaense." },
  { "cat": "entretenimiento", "name": "Parque Juan Vortisch", "municipio": "Montecarlo", "lat": -26.5680, "lng": -54.7550, "icon": "🌺", "desc": "Jardín botánico con orquideario, senderos interpretativos, mariposas y aves exóticas de la selva misionera." },
  { "cat": "campings", "name": "Chacra Monte Carlo Eco", "municipio": "Montecarlo", "lat": -26.5750, "lng": -54.7400, "icon": "🌿", "desc": "Granja agroecológica con camping, huerta orgánica, producción de yerba mate artesanal y talleres rurales." },
  { "cat": "campings", "name": "Camping Ecológico Mbororé", "municipio": "Eldorado", "lat": -26.4150, "lng": -54.6100, "icon": "🏕️", "desc": "Experiencia inmersiva en comunidad guaraní con prácticas sustentables, fogones culturales y senderos nativos." },
  { "cat": "campings", "name": "Finca Agroecológica Don Segundo", "municipio": "San Vicente", "lat": -26.9900, "lng": -54.5000, "icon": "🌾", "desc": "Camping rural con producción orgánica de yerba, té y cítricos. Paseos en carro y avistaje de aves." },
  { "cat": "campings", "name": "Chacra El Paraíso", "municipio": "Colonia Aurora", "lat": -27.4800, "lng": -54.5800, "icon": "🦜", "desc": "Turismo rural con camping entre araucarias, fauna nativa, arroyos cristalinos y noches de cielo estrellado." },
  { "cat": "campings", "name": "Eco Camping Salto del Tabay", "municipio": "Jardín América", "lat": -27.0500, "lng": -55.2200, "icon": "💧", "desc": "Camping sustentable junto a cascadas naturales del arroyo Tabay. Sanitarios ecológicos y energía solar." },
  { "cat": "campings", "name": "Reserva Yaguaroundí", "municipio": "San Pedro", "lat": -26.6300, "lng": -54.1150, "icon": "🐆", "desc": "Camping en reserva privada de selva con avistaje de fauna silvestre, senderismo y educación ambiental." },
  { "cat": "estudiantil", "name": "Ruinas Jesuíticas de San Ignacio", "municipio": "San Ignacio", "lat": -27.2580, "lng": -55.5330, "icon": "🏛️", "desc": "Patrimonio de la Humanidad UNESCO. Reducción jesuítica-guaraní del siglo XVII con centro de interpretación." },
  { "cat": "estudiantil", "name": "Cataratas del Iguazú", "municipio": "Puerto Iguazú", "lat": -25.6953, "lng": -54.4367, "icon": "💧", "desc": "Una de las 7 Maravillas del Mundo Natural. Senderos educativos, Garganta del Diablo y Centro de Visitantes." },
  { "cat": "estudiantil", "name": "Minas de Wanda", "municipio": "Colonia Wanda", "lat": -25.9700, "lng": -54.5600, "icon": "💎", "desc": "Yacimiento de piedras semipreciosas: amatistas, cuarzos y ágatas. Circuito geológico guiado para estudiantes." },
  { "cat": "estudiantil", "name": "Parque Temático de la Cruz", "municipio": "Santa Ana", "lat": -27.3830, "lng": -55.5720, "icon": "🔭", "desc": "Observatorio y centro de interpretación ambiental. Vista de 360° de la selva paranaense desde 82m de altura." },
  { "cat": "estudiantil", "name": "Centro de Rescate de Fauna", "municipio": "Montecarlo", "lat": -26.5650, "lng": -54.7600, "icon": "🦅", "desc": "Proyecto educativo de conservación y rehabilitación de aves rapaces y fauna silvestre de la región." },
  { "cat": "estudiantil", "name": "Casa de Horacio Quiroga", "municipio": "San Ignacio", "lat": -27.2560, "lng": -55.5380, "icon": "📖", "desc": "Museo literario en la vivienda del maestro del cuento latinoamericano. Circuito cultural entre la selva." },
  { "cat": "museos", "name": "Museo Histórico Aníbal Cambas", "municipio": "Posadas", "lat": -27.3680, "lng": -55.8920, "icon": "🏛️", "desc": "Historia integral de Misiones: época jesuítica, colonización y cultura guaraní. Principal museo de la provincia." },
  { "cat": "museos", "name": "Museo de la Imagen y el Sonido", "municipio": "Posadas", "lat": -27.3670, "lng": -55.8960, "icon": "🎬", "desc": "Audiovisual y artes multimedia. Archivo fotográfico histórico y muestras itinerantes de artistas misioneros." },
  { "cat": "museos", "name": "Museo Regional de Oberá", "municipio": "Oberá", "lat": -27.4820, "lng": -55.1250, "icon": "🏺", "desc": "Arqueología y etno-historia regional. Colecciones de cultura guaraní, colonización europea e inmigración." },
  { "cat": "museos", "name": "Museo Juan Yaparí", "municipio": "San Ignacio", "lat": -27.2570, "lng": -55.5340, "icon": "🎨", "desc": "Arte indígena guaraní contemporáneo. Esculturas, tallados y pinturas que preservan la identidad originaria." },
  { "cat": "museos", "name": "Museo Casa de Horacio Quiroga", "municipio": "San Ignacio", "lat": -27.2560, "lng": -55.5380, "icon": "📚", "desc": "Vida y obra del maestro del cuento. Objetos personales, manuscritos y recreación del entorno selvático." },
  { "cat": "museos", "name": "Museo de Insectos", "municipio": "Montecarlo", "lat": -26.5670, "lng": -54.7570, "icon": "🦋", "desc": "Colección entomológica con mariposas, escarabajos y arácnidos de la selva misionera. Experiencia educativa." },

  { "cat": "parques", "name": "PP Salto Encantado del Valle Cuña Pirú", "municipio": "Aristóbulo del Valle", "lat": -27.0550, "lng": -54.8350, "icon": "🌊", "desc": "13.227 ha de selva misionera. Caída de 64 m, senderos de todos los niveles, restaurante con cocina regional y centro de interpretación de aves (AICA). Entrada paga. Gratuito para estudiantes misioneros con habilitación del CGE." },
  { "cat": "parques", "name": "PP Teyú Cuaré", "municipio": "San Ignacio", "lat": -27.3150, "lng": -55.5780, "icon": "🦎", "desc": "78 ha sobre el río Paraná. 3 senderos de 600 m, miradores al Paraná, ruinas históricas y camping. Ingreso gratuito (bono voluntario). Ideal para familias y excursiones escolares." },
  { "cat": "parques", "name": "PP Moconá", "municipio": "El Soberbio", "lat": -27.1780, "lng": -53.9000, "icon": "🌈", "desc": "Hogar de los Saltos del Moconá, formación geológica única en el mundo: cascadas paralelas al cauce del río Uruguay de hasta 3 km de largo. Reserva de Biosfera Yabotí. Apto para turismo estudiantil y familiar." },
  { "cat": "parques", "name": "PP Urugua-í", "municipio": "Bernardo de Irigoyen", "lat": -25.8900, "lng": -54.1500, "icon": "🌿", "desc": "84.000 ha: el parque provincial más extenso de Misiones. Selva atlántica pristina, arroyo Urugua-í y lago artificial. Senderos, campamento y alta biodiversidad. Corredor Verde." },
  { "cat": "parques", "name": "PP Piñalito", "municipio": "Bernardo de Irigoyen", "lat": -26.1900, "lng": -53.8700, "icon": "🌲", "desc": "Bosque de araucarias misioneras (Araucaria angustifolia), especie amenazada. Senderos interpretativos, cascadas y área de acampe. Ingreso gratuito. Excepcional para educación ambiental." },
  { "cat": "parques", "name": "PP Cruce Caballero", "municipio": "San Pedro", "lat": -26.4200, "lng": -54.0800, "icon": "🦜", "desc": "Selva profunda con alta densidad de mamíferos y aves. Área de acampe gratuita, senderos y guardaparques. Uno de los mejor conservados de la provincia. Apto para grupos estudiantiles." },
  { "cat": "parques", "name": "PP Esmeralda", "municipio": "El Soberbio", "lat": -26.9700, "lng": -54.1400, "icon": "💚", "desc": "Reserva de Biosfera Yabotí. Selva virgen con yacutoro, tapir y yaguareté. Senderos guiados y camping. Biodiversidad de nivel internacional dentro del Corredor Verde." },
  { "cat": "parques", "name": "PP Esperanza", "municipio": "Puerto Esperanza", "lat": -26.0250, "lng": -54.5280, "icon": "🌅", "desc": "Sobre el río Paraná, adyacente al Parque Nacional Iguazú. Selva alta, senderos costeros y fauna ribereña. Complemento ideal para excursiones desde Puerto Iguazú." },
  { "cat": "parques", "name": "PP Puerto Península", "municipio": "Puerto Iguazú", "lat": -25.6500, "lng": -54.5850, "icon": "🐊", "desc": "Contiguo al Parque Nacional Iguazú, en la confluencia de los ríos Iguazú y Paraná. Bosque ribereño, fauna silvestre y acceso fluvial. Ambiente de alto impacto educativo." },
  { "cat": "parques", "name": "PP Guardaparque Horacio Foerster", "municipio": "Bernardo de Irigoyen", "lat": -26.2500, "lng": -53.7500, "icon": "🏔️", "desc": "Selva de altura en la frontera con Brasil. Cascadas, senderos exigentes y alta biodiversidad. Homenaje al primer guardaparque provincial de Misiones." },
  { "cat": "parques", "name": "PP de la Sierra", "municipio": "25 de Mayo", "lat": -27.3800, "lng": -54.7500, "icon": "🏕️", "desc": "Parque gratuito con salto, senderos y área de acampe en el centro-sur provincial. Entorno selvático accesible con guardaparques activos durante todo el año." },
  { "cat": "parques", "name": "PP Fachinal", "municipio": "Fachinal", "lat": -27.5530, "lng": -55.7250, "icon": "🌸", "desc": "Parque provincial en el sur misionero con monte nativo, arroyo y avifauna local. Zona de amortiguación del Corredor Verde Sur. Apto para caminatas en familia." },
  { "cat": "parques", "name": "PP de la Araucaria", "municipio": "Colonia Aurora", "lat": -27.4200, "lng": -54.5600, "icon": "🌳", "desc": "Protege uno de los últimos rodales nativos de Araucaria angustifolia de Misiones. Senderos interpretativos sin cargo. Destino de alto valor para turismo estudiantil y ambiental." },
  { "cat": "parques", "name": "PP Isla Caraguatay", "municipio": "Caraguatay", "lat": -26.6150, "lng": -54.7660, "icon": "🏝️", "desc": "Isla fluvial sobre el río Paraná con selva ribereña, playas naturales y fauna. Acceso en embarcación desde Caraguatay. Hábitat de yacarés, nutrias y aves acuáticas." },
  { "cat": "parques", "name": "PP Cañadón de Profundidad", "municipio": "Profundidad", "lat": -27.7070, "lng": -55.6640, "icon": "🌊", "desc": "Parque con quinchos, cañadón con arroyo y guardaparques. Ingreso pago. Ideal para día de campo familiar con baño natural en el sur de la provincia." },
  { "cat": "parques", "name": "PP Uruzú", "municipio": "Puerto Iguazú", "lat": -25.6800, "lng": -54.4200, "icon": "🌿", "desc": "Parque provincial del norte misionero próximo a Puerto Iguazú. Conectado al sistema de áreas protegidas del Corredor Verde Norte. Hábitat de tapires, coatíes y aves tropicales." },
  { "cat": "parques", "name": "PP Ing. Agr. Roberto Cametti", "municipio": "Eldorado", "lat": -26.4100, "lng": -54.6000, "icon": "🦚", "desc": "Área natural en la región central-norte del corredor verde. Selva secundaria en recuperación, fauna local y senderos educativos. Acceso desde Eldorado." },
  { "cat": "parques", "name": "PP Yacuy", "municipio": "Bernardo de Irigoyen", "lat": -26.1300, "lng": -53.6300, "icon": "🌿", "desc": "Parque en el extremo noreste de Misiones, contiguo a la frontera con Brasil. Selva atlántica de altura con gran biodiversidad. Parte del corredor binacional de conservación." },

  { "cat": "peloteros", "name": "Planet Kids Pelotero", "municipio": "Posadas", "lat": -27.3780, "lng": -55.8880, "icon": "🎈", "desc": "Catamarca 1268 casi Gral. Paz, Posadas. Avión con tirolesa, tobogán gigante, cama elástica, cancha de fútbol, disco-karaoke y sala blanda para bebés. Cumpleaños, eventos escolares, bautismos y comuniones." },
  { "cat": "peloteros", "name": "El Pez Mágico Pelotero", "municipio": "Posadas", "lat": -27.3720, "lng": -55.8930, "icon": "🐟", "desc": "Posadas. Toro mecánico (único en Posadas), pared de velcro, lucha de gladiadores, más de 200 videojuegos arcade, máquina de baile Pump It Up. Fiesta Teens para preadolescentes." },
  { "cat": "peloteros", "name": "Multiespacio Costanera — El Pelotero de la Costa", "municipio": "Posadas", "lat": -27.3930, "lng": -55.8750, "icon": "🌊", "desc": "Coronel López 1822, Posadas. Espacio recreativo sobre el río Paraná. Juegos infantiles, salón de eventos y área de costanera. Ideal para celebraciones familiares al aire libre." },
  { "cat": "peloteros", "name": "Play House Salón de Eventos", "municipio": "Posadas", "lat": -27.3800, "lng": -55.8900, "icon": "🏠", "desc": "Posadas. Salón climatizado con pelotero, camas elásticas, tirolesa, toro mecánico, pared de escalada y sector Mario Bros. Capacidad hasta 25 niños y 50 adultos. Cobertura médica incluida." },
  { "cat": "peloteros", "name": "Pelotero Nuevo Jugar", "municipio": "Posadas", "lat": -27.3750, "lng": -55.8930, "icon": "🎪", "desc": "Posadas. Local cerrado y climatizado con cámaras de vigilancia. Pelotero, tobogán, juegos mecánicos, kiosco con gaseosas, sándwiches y mate/tereré. Promociones para jardines de infantes." },
  { "cat": "peloteros", "name": "Mundo Kids Pelotero", "municipio": "Oberá", "lat": -27.4860, "lng": -55.1210, "icon": "🌍", "desc": "Av. de las Américas 1529, Oberá. Salón de fiestas infantiles con juegos para niños pequeños, VIP para adultos, sanitarios, ambiente climatizado y personal altamente calificado. Referente de Oberá." },
  { "cat": "peloteros", "name": "Momentos Mágicos Pelotero", "municipio": "Oberá", "lat": -27.4820, "lng": -55.1200, "icon": "✨", "desc": "Río Cuarto 438, Oberá. Salón de fiestas infantiles renovado con área de juegos, toboganes, laberinto, zona de mesas y ambiente controlado para niños. Excelente relación precio-calidad." },
  { "cat": "peloteros", "name": "Salón de Fiestas Infantiles Colores", "municipio": "Eldorado", "lat": -26.4080, "lng": -54.6290, "icon": "🎨", "desc": "Eldorado. Salón infantil con temáticas de colores, juegos recreativos y atención personalizada. Cubre cumpleaños, bautismos y eventos escolares en el corazón del norte misionero." },
  { "cat": "peloteros", "name": "Pelotero Nachito Eventos", "municipio": "Oberá", "lat": -27.4810, "lng": -55.1230, "icon": "🎉", "desc": "Oberá. Organización de eventos infantiles y familiares. Pelotero, inflables, decoración, catering y lunch. Atiende reuniones empresariales y eventos escolares para toda la región centro." }
]
